City_ID,City,Lat,Lng,Max Temp,Humidity,Cloudiness,Wind Speed,Country,Date
0,Shimoda,34.6667,138.95,44.1,90,100,14.67,JP,1678008783
1,Faanui,-16.4833,-151.75,81.55,79,99,11.68,PF,1678008784
2,Rikitea,-23.1203,-134.9692,79.65,75,100,14.85,PF,1678008784
3,Ushuaia,-54.8,-68.3,31.66,93,0,4.61,AR,1678008784
4,Pangnirtung,66.1451,-65.7125,31.73,81,100,12.95,CA,1678008784
5,Naze,28.3667,129.4833,58.12,57,2,8.03,JP,1678008784
6,Khatanga,71.9667,102.5,-12.48,97,100,7.14,RU,1678008784
7,Avarua,-21.2078,-159.775,82.45,89,75,18.41,CK,1678008784
8,Arraial Do Cabo,-22.9661,-42.0278,75.06,88,0,10.36,BR,1678008784
9,Cambui,-22.6122,-46.0575,66.47,95,100,1.28,BR,1678008785
10,Kaitangata,-46.2817,169.8464,47.64,78,42,2.95,NZ,1678008785
11,Kahului,20.8947,-156.47,72.84,86,0,5.75,US,1678008785
12,Trairi,-3.2778,-39.2689,76.84,92,88,7.4,BR,1678008785
13,Aklavik,68.2191,-135.0107,-25.98,98,9,6.96,CA,1678008785
14,Puerto Ayora,-0.7393,-90.3518,75.54,91,32,1.86,EC,1678008785
15,Khorixas,-20.3667,14.9667,83.34,14,0,5.7,NA,1678008785
16,Hithadhoo,-0.6,73.0833,82.6,72,13,6.98,MV,1678008786
17,Saint George,37.1041,-113.5841,48.25,52,0,13.8,US,1678008786
18,Kisangani,0.5167,25.2,98.37,33,100,3.02,CD,1678008786
19,Mataura,-46.1927,168.8643,51.48,91,7,3.49,NZ,1678008786
20,Busselton,-33.65,115.3333,69.13,56,0,17.4,AU,1678008786
21,Mitsamiouli,-11.3847,43.2844,84.11,74,96,14.7,KM,1678008786
22,Los Llanos De Aridane,28.6585,-17.9182,64.15,74,20,5.01,ES,1678008786
23,Lumsden,50.6501,-104.8678,16.75,100,87,5.08,CA,1678008787
24,Vestmanna,62.1564,-7.1664,32.92,93,100,0.0,FO,1678008787
25,Albany,42.6001,-73.9662,32.67,82,100,4.56,US,1678008787
26,Half Moon Bay,37.4636,-122.4286,49.87,81,100,20.71,US,1678008787
27,San Cristobal,7.7669,-72.225,74.73,92,83,2.73,VE,1678008787
28,Bredasdorp,-34.5322,20.0403,66.38,87,100,11.23,ZA,1678008787
29,Pevek,69.7008,170.3133,-32.53,100,43,3.44,RU,1678008646
30,Qaanaaq,77.484,-69.3632,16.88,53,96,9.6,GL,1678008788
31,Ribeira Grande,38.5167,-28.7,57.78,72,40,24.16,PT,1678008788
32,Cartagena,10.3997,-75.5144,78.42,83,75,3.44,CO,1678008788
33,Hami,42.8,93.45,58.05,19,2,5.32,CN,1678008788
34,Ponta Do Sol,32.6667,-17.1,71.01,80,79,3.65,PT,1678008788
35,Vao,-22.6667,167.4833,76.41,68,81,15.99,NC,1678008788
36,Upernavik,72.7868,-56.1549,22.78,84,100,20.04,GL,1678008789
37,Hermanus,-34.4187,19.2345,68.81,84,100,11.18,ZA,1678008789
38,Sitka,57.0531,-135.33,30.09,43,20,6.91,US,1678008789
39,New Norfolk,-42.7826,147.0587,65.91,85,60,2.21,AU,1678008789
40,Hoi An,15.8794,108.335,76.96,79,9,9.64,VN,1678008789
41,Nikolskoye,59.7035,30.7861,31.89,88,97,0.87,RU,1678008789
42,Georgetown,5.4112,100.3354,93.15,43,20,12.66,MY,1678008790
43,Kismayo,-0.3582,42.5454,85.39,63,59,16.35,SO,1678008790
44,Shu,43.5983,73.7614,62.55,43,98,6.08,KZ,1678008790
45,Kununurra,-15.7667,128.7333,93.18,55,95,8.05,AU,1678008790
46,Lavrentiya,65.5833,-171.0,27.84,96,100,23.78,RU,1678008790
47,Canutama,-6.5339,-64.3831,74.07,98,100,2.37,BR,1678008790
48,Iquitos,-3.7481,-73.2472,73.44,94,100,3.44,PE,1678008790
49,Yellowknife,62.456,-114.3525,-17.45,76,20,10.36,CA,1678008791
50,Hofn,64.2539,-15.2082,34.7,64,100,17.72,IS,1678008791
51,Borovoy,55.4333,86.0833,24.08,68,0,8.95,RU,1678008791
52,Chumikan,54.7183,135.315,24.76,97,97,5.44,RU,1678008791
53,Punta Arenas,-53.15,-70.9167,37.51,93,75,1.14,CL,1678008791
54,Chokurdakh,70.6333,147.9167,-42.27,100,18,4.43,RU,1678008791
55,Camopi,3.1655,-52.3158,70.74,100,100,1.5,GF,1678008791
56,Shingu,33.7333,135.9833,47.82,76,54,3.85,JP,1678008792
57,Carnarvon,-24.8667,113.6333,81.16,65,0,26.46,AU,1678008792
58,Havre-Saint-Pierre,50.2334,-63.5986,17.6,61,0,14.97,CA,1678008792
59,Mapimi,25.8167,-103.85,53.58,19,0,2.33,MX,1678008792
60,Kapaa,22.0752,-159.319,70.11,92,23,7.78,US,1678008792
61,Martapura,-3.4167,114.85,84.29,70,40,6.91,ID,1678008792
62,Cherskiy,68.75,161.3,-25.37,100,97,2.84,RU,1678008792
63,Tasiilaq,65.6145,-37.6368,26.76,91,74,12.24,GL,1678008793
64,Saint-Philippe,-21.3585,55.7679,83.79,89,100,8.3,RE,1678008793
65,Batagay-Alyta,67.8006,130.4114,-13.13,98,100,3.8,RU,1678008793
66,Cidreira,-30.1811,-50.2056,72.39,92,99,10.92,BR,1678008793
67,Tura,25.5198,90.2201,87.96,25,2,8.01,IN,1678008793
68,Vaini,-21.2,-175.2,78.96,94,75,20.71,TO,1678008793
69,Pueblo,38.2545,-104.6091,30.96,69,0,12.66,US,1678008794
70,Pacifica,37.6138,-122.4869,49.68,82,100,24.0,US,1678008794
71,La Ronge,55.1001,-105.2842,-10.95,77,40,8.05,CA,1678008794
72,Izhma,65.0083,53.9113,10.58,87,68,1.74,RU,1678008794
73,Qui Nhon,13.7667,109.2333,73.74,75,7,13.87,VN,1678008794
74,Kushmurun,52.4503,64.6311,31.68,89,100,12.12,KZ,1678008611
75,Dingle,10.9995,122.6711,75.56,83,75,14.38,PH,1678008794
76,Jamestown,42.097,-79.2353,36.99,97,100,6.91,US,1678008794
77,Cape Town,-33.9258,18.4232,69.89,82,75,18.41,ZA,1678008585
78,Hasaki,35.7333,140.8333,51.22,63,100,11.16,JP,1678008795
79,Port Lincoln,-34.7333,135.8667,63.28,76,9,15.17,AU,1678008795
80,Kikwit,-5.041,18.8162,93.79,45,90,1.21,CD,1678008795
81,Arlit,18.7369,7.3853,95.83,6,67,8.66,NE,1678008795
82,Maltahohe,-24.8333,16.9833,76.64,18,0,5.46,NA,1678008795
83,Beringovskiy,63.05,179.3167,-0.13,96,100,13.82,RU,1678008795
84,Atuona,-9.8,-139.0333,79.88,80,24,12.95,PF,1678008795
85,Adrar,20.5022,-10.0711,76.06,21,84,9.51,MR,1678008795
86,Tartagal,-22.5164,-63.8013,77.0,65,100,2.06,AR,1678008796
87,Marsh Harbour,26.5412,-77.0636,77.18,74,41,5.99,BS,1678008796
88,Barrow,71.2906,-156.7887,-16.58,76,100,28.77,US,1678008796
89,Codrington,-38.2667,141.9667,63.1,89,100,13.53,AU,1678008796
90,Hilo,19.7297,-155.09,68.25,92,75,4.61,US,1678008796
91,Fort Nelson,58.8053,-122.7002,-8.01,71,75,5.75,CA,1678008796
92,Kodiak,57.79,-152.4072,29.71,64,0,5.75,US,1678008797
93,Ancud,-41.8697,-73.8203,57.33,96,100,9.04,CL,1678008797
94,Ust-Nera,64.5667,143.2,-22.85,100,78,2.17,RU,1678008797
95,Norman Wells,65.282,-126.8329,-32.76,75,0,0.0,CA,1678008797
96,Tuktoyaktuk,69.4541,-133.0374,-32.1,100,19,5.21,CA,1678008797
97,Polyarnyy,69.1989,33.4478,19.89,87,100,4.23,RU,1678008797
98,Victoria,22.2855,114.1577,76.19,45,0,3.0,HK,1678008748
99,Sao Joao Da Barra,-21.6403,-41.0511,73.49,86,100,10.11,BR,1678008797
100,Bluff,-46.6,168.3333,51.8,69,2,12.21,NZ,1678008797
101,Port Hardy,50.6996,-127.4199,41.0,81,100,12.66,CA,1678008798
102,Mayo,38.8876,-76.5119,41.0,80,0,0.0,US,1678008798
103,Broome,42.2506,-75.833,32.38,92,100,1.99,US,1678008798
104,Lebu,-37.6167,-73.65,56.17,86,0,15.77,CL,1678008798
105,Auki,-8.7676,160.7034,77.47,87,100,9.75,SB,1678008798
106,Qaqortoq,60.7167,-46.0333,27.68,74,62,10.51,GL,1678008725
107,Beaverlodge,55.2166,-119.4361,-2.85,98,100,5.53,CA,1678008798
108,Lorengau,-2.0226,147.2712,81.32,78,100,7.87,PG,1678008798
109,Gambela,8.25,34.5833,104.4,17,95,4.85,ET,1678008799
110,Kpandae,8.4689,-0.0113,90.59,46,24,6.96,GH,1678008799
111,Severo-Kurilsk,50.6789,156.125,22.5,72,87,9.42,RU,1678008799
112,Lensk,60.7253,114.9278,14.31,77,99,11.52,RU,1678008657
113,Northam,51.0333,-4.2167,39.61,80,100,3.38,GB,1678008799
114,Rieti,42.4072,12.8592,50.61,81,0,8.05,IT,1678008799
115,Arua,3.0201,30.9111,91.0,25,72,12.12,UG,1678008800
116,Pitiquito,30.7,-112.0833,57.99,34,7,5.26,MX,1678008800
117,Tooele,40.5308,-112.2983,31.98,97,91,3.0,US,1678008800
118,Bathsheba,13.2167,-59.5167,77.61,78,40,17.27,BB,1678008800
119,Lata,40.1629,-8.3327,51.08,85,98,7.25,PT,1678008800
120,Le Port,-20.9373,55.2919,84.51,88,100,6.82,RE,1678008603
121,Rio Gallegos,-51.6226,-69.2181,42.85,75,0,9.22,AR,1678008801
122,Palauig,15.435,119.9045,78.37,70,34,5.91,PH,1678008801
123,North Myrtle Beach,33.816,-78.68,52.11,63,0,6.91,US,1678008801
124,Butaritari,3.0707,172.7902,80.74,78,87,4.72,KI,1678008801
125,Viedma,-40.8135,-62.9967,63.52,47,2,10.2,AR,1678008801
126,Vrangel,42.7297,133.0839,34.86,90,8,1.79,RU,1678008801
127,Lompoc,34.6391,-120.4579,49.59,91,100,6.91,US,1678008802
128,Xichang,27.8964,102.2634,72.0,28,6,8.46,CN,1678008802
129,Poum,-20.2333,164.0167,79.38,80,45,8.08,NC,1678008802
130,Westport,41.1415,-73.3579,37.74,88,100,0.0,US,1678008802
131,Ilulissat,69.2167,-51.1,21.22,86,34,1.14,GL,1678008802
132,Kiunga,-6.1219,141.2906,74.53,97,98,2.46,PG,1678008802
133,Sibu,2.3,111.8167,88.11,66,40,5.75,MY,1678008802
134,Bato,13.3528,123.3677,73.26,85,52,7.47,PH,1678008802
135,Saskylakh,71.9167,114.0833,-15.05,99,98,6.22,RU,1678008802
136,Husavik,66.0449,-17.3389,26.94,90,100,8.08,IS,1678008803
137,Hobart,-42.8794,147.3294,65.23,82,0,12.66,AU,1678008803
138,Port Blair,11.6667,92.75,87.84,66,40,5.75,IN,1678008803
139,Port Alfred,-33.5906,26.891,79.18,80,41,5.99,ZA,1678008803
140,Ostrovnoy,68.0531,39.5131,14.83,83,100,7.0,RU,1678008803
141,Udachnyy,66.4167,112.4,-0.92,90,100,17.4,RU,1678008803
142,Vila Velha,-20.3297,-40.2925,73.94,88,0,2.3,BR,1678008803
143,Kavieng,-2.5744,150.7967,80.91,77,100,8.1,PG,1678008803
144,Annau,37.8876,58.516,56.7,54,100,2.3,TM,1678008660
145,Longyearbyen,78.2186,15.6401,-0.56,65,75,11.5,SJ,1678008804
146,Mayor Pablo Lagerenza,-19.9309,-60.7718,75.87,86,91,5.35,PY,1678008804
147,Marsabit,2.3284,37.9899,80.76,36,79,18.79,KE,1678008804
148,Rocha,-34.4833,-54.3333,69.8,85,100,5.1,UY,1678008804
149,Chuy,-33.6971,-53.4616,72.21,79,84,5.41,UY,1678008804
150,Mar Del Plata,-38.0023,-57.5575,65.95,85,2,1.99,AR,1678008774
151,Portland,45.5234,-122.6762,37.35,93,75,8.05,US,1678008722
152,Twin Falls,42.3505,-114.6445,26.92,63,0,13.8,US,1678008805
153,San Patricio,28.017,-97.5169,66.88,88,46,6.55,US,1678008805
154,Tahe,52.3333,124.7333,21.83,92,56,2.8,CN,1678008805
155,Wamba,8.9333,8.6,96.28,29,99,1.48,NG,1678008805
156,Cabo San Lucas,22.8909,-109.9124,55.62,68,0,9.31,MX,1678008805
157,Mezen,65.8522,44.24,11.3,86,91,2.04,RU,1678008805
158,Villagarzon,1.0375,-76.6267,72.18,100,100,0.51,CO,1678008805
159,Port Antonio,18.18,-76.4612,78.71,79,10,8.88,JM,1678008805
160,Sangar,63.9242,127.4739,1.04,98,100,1.99,RU,1678008806
161,Nemuro,43.3236,145.575,30.69,79,3,11.63,JP,1678008806
162,Dahra,36.2546,0.8519,45.79,36,7,4.21,DZ,1678008806
163,Samarai,-10.6167,150.6667,81.32,76,100,10.65,PG,1678008806
164,Constitucion,-35.3333,-72.4167,59.56,43,0,5.86,CL,1678008806
165,Abu Dhabi,24.4667,54.3667,82.51,54,0,6.91,AE,1678008591
166,Berlevag,70.8578,29.0864,19.35,68,100,6.91,NO,1678008806
167,Esperance,-33.8667,121.9,65.46,66,43,12.77,AU,1678008807
168,Christchurch,-43.5333,172.6333,53.91,91,100,4.61,NZ,1678008659
169,Grindavik,63.8424,-22.4338,39.67,100,75,9.22,IS,1678008807
170,Srednekolymsk,67.45,153.6833,-38.27,99,6,2.68,RU,1678008807
171,Shakiso,5.75,38.9167,83.66,20,94,10.16,ET,1678008807
172,Novouzensk,50.4592,48.1431,39.9,81,83,25.34,RU,1678008807
173,Nata,8.3333,-80.5167,74.46,85,87,5.66,PA,1678008807
174,Kesinga,20.2,83.2333,99.01,9,0,6.64,IN,1678008807
175,Airai,-8.9266,125.4092,61.16,94,89,2.44,TL,1678008807
176,Whitehorse,60.7161,-135.0538,-1.43,71,100,9.22,CA,1678008808
177,Baringo,0.4667,35.9667,94.78,17,100,14.97,KE,1678008808
178,Kudahuvadhoo,2.6708,72.8944,81.46,72,94,5.23,MV,1678008808
179,Iqaluit,63.7506,-68.5145,24.53,100,100,4.61,CA,1678008808
180,Bubaque,11.2833,-15.8333,74.98,66,72,4.63,GW,1678008808
181,Kitoy,52.6,103.9,32.88,82,97,0.34,RU,1678008808
182,Kaka,37.3482,59.6143,69.67,28,92,8.14,TM,1678008808
183,Phuthaditjhaba,-28.5242,28.8158,77.65,44,2,10.63,ZA,1678008809
184,Castro,-24.7911,-50.0119,63.23,99,20,4.45,BR,1678008809
185,Sao Felix Do Xingu,-6.6447,-51.995,72.27,99,100,1.05,BR,1678008809
186,Borger,52.9233,6.7931,42.82,85,100,12.01,NL,1678008715
187,Mount Gambier,-37.8333,140.7667,60.55,89,86,12.95,AU,1678008809
188,Saint-Augustin,51.226,-58.6502,21.45,90,99,18.1,CA,1678008809
189,Tonantins,-2.8731,-67.8022,73.31,99,100,2.39,BR,1678008809
190,Peddapalli,18.6167,79.3667,97.7,13,0,6.71,IN,1678008809
191,Yurimaguas,-5.9,-76.0833,70.95,99,93,1.3,PE,1678008810
192,Juazeiro,-9.4117,-40.4986,75.38,73,20,8.05,BR,1678008810
193,Narsaq,60.9167,-46.05,48.42,67,46,10.31,GL,1678008810
194,Morant Bay,17.8815,-76.4093,78.42,77,12,10.25,JM,1678008810
195,Gwanda,-20.9333,29.0,85.86,38,11,7.63,ZW,1678008810
196,Bambous Virieux,-20.3428,57.7575,86.25,62,75,11.5,MU,1678008810
197,Karratha,-20.7377,116.8463,86.23,69,26,21.3,AU,1678008810
198,Talnakh,69.4865,88.3972,-7.82,98,100,5.86,RU,1678008810
199,Yashkul,46.1711,45.3435,52.39,57,79,19.33,RU,1678008811
200,Ponta Delgada,37.7333,-25.6667,57.92,88,40,14.97,PT,1678008612
201,Tondano,1.3038,124.9112,68.09,87,100,2.82,ID,1678008811
202,Burnie,-41.0667,145.9167,65.44,84,77,3.87,AU,1678008811
203,Bethel,41.3712,-73.414,35.94,85,100,0.0,US,1678008811
204,Buala,-8.145,159.5921,78.58,83,100,6.55,SB,1678008811
205,Fortuna,40.5982,-124.1573,39.34,96,100,12.66,US,1678008811
206,Torbay,47.6666,-52.7314,13.75,86,75,11.5,CA,1678008811
207,Lamar,33.6668,-95.5836,52.65,82,0,8.05,US,1678008812
208,Thompson,55.7435,-97.8558,6.96,85,100,3.44,CA,1678008812
209,Hovd,48.0056,91.6419,40.71,25,41,1.7,MN,1678008812
210,Anadyr,64.75,177.4833,-8.9,83,100,32.99,RU,1678008643
211,Eureka,40.8021,-124.1637,39.61,94,100,7.0,US,1678008812
212,Dzilam Gonzalez,21.2833,-88.9333,71.47,96,14,5.95,MX,1678008812
213,San Quintin,30.4833,-115.95,52.97,76,74,14.5,MX,1678008812
214,Mahebourg,-20.4081,57.7,86.29,62,75,11.5,MU,1678008666
215,Novyy Urengoy,66.0833,76.6333,-9.09,97,73,2.86,RU,1678008780
216,Puerto Escondido,15.85,-97.0667,74.89,75,6,2.98,MX,1678008813
217,Vestmannaeyjar,63.4427,-20.2734,40.19,81,75,16.11,IS,1678008813
218,Warrington,53.3925,-2.5802,43.45,81,100,4.61,GB,1678008813
219,Innisfail,-17.5333,146.0333,77.11,86,99,9.6,AU,1678008813
220,Manga,11.6636,-1.0731,93.85,8,2,5.23,BF,1678008813
221,Geraldton,-28.7667,114.6,75.61,64,0,25.32,AU,1678008813
222,Sampit,-2.5333,112.95,77.36,94,98,2.57,ID,1678008814
223,Broken Hill,-31.95,141.4333,86.52,16,30,10.25,AU,1678008814
224,Flinders,-34.5833,150.8552,75.38,79,38,12.73,AU,1678008814
225,Yerbogachen,61.2767,108.0108,10.6,80,95,12.66,RU,1678008814
226,Borogontsy,62.6683,131.1683,2.86,99,98,3.53,RU,1678008814
227,Nuuk,64.1835,-51.7216,27.86,76,99,11.1,GL,1678008814
228,Esso,55.9333,158.7,-10.97,90,33,5.21,RU,1678008814
229,Boa Vista,2.8197,-60.6733,73.38,83,0,5.75,BR,1678008814
230,Limbang,4.75,115.0,82.51,94,100,4.68,MY,1678008815
231,Charagua,-19.8,-63.2167,71.47,80,93,2.71,BO,1678008815
232,Igurubi,-4.0,33.7,83.44,45,85,6.55,TZ,1678008815
233,Harper,4.375,-7.7169,83.61,72,34,2.26,LR,1678008815
234,Ulladulla,-35.35,150.4667,71.46,81,32,14.23,AU,1678008815
235,Luza,60.6308,47.2512,19.67,90,100,8.95,RU,1678008815
236,Fruitvale,39.0817,-108.4968,40.93,79,0,6.91,US,1678008816
237,Barra Do Garcas,-15.89,-52.2567,72.05,93,85,2.68,BR,1678008816
238,Selishche,56.8879,33.2691,28.2,88,99,6.67,RU,1678008816
239,Port Elizabeth,-33.918,25.5701,74.32,99,100,1.01,ZA,1678008537
240,Bengkulu,-3.8004,102.2655,81.39,74,59,5.79,ID,1678008816
241,Abha,18.2164,42.5053,73.65,20,0,4.61,SA,1678008816
242,Lagoa,39.05,-27.9833,56.3,67,51,29.68,PT,1678008816
243,Coihaique,-45.5752,-72.0662,55.35,94,100,5.75,CL,1678008817
244,Mount Isa,-20.7333,139.5,83.97,58,96,10.36,AU,1678008795
245,Oranjestad,12.524,-70.027,77.31,83,83,25.57,AW,1678008817
246,Mariestad,58.7097,13.8237,33.39,57,11,15.28,SE,1678008817
247,Atlantic City,39.3643,-74.4229,38.98,78,0,1.01,US,1678008817
248,Seoul,37.5683,126.9778,56.59,23,0,6.91,KR,1678008524
249,Sidney,-33.8679,151.2073,77.77,77,0,21.85,AU,1678008817
250,Sao Filipe,14.8961,-24.4956,73.04,65,70,5.95,CV,1678008817
251,East London,-33.0153,27.9116,83.34,69,0,13.8,ZA,1678008745
252,Paamiut,61.994,-49.6678,29.66,65,92,11.88,GL,1678008818
253,Vila Franca Do Campo,37.7167,-25.4333,57.61,87,100,14.14,PT,1678008818
254,Tsuyama,35.05,134.0,49.03,73,3,4.45,JP,1678008818
255,Oktyabrskoye,43.0645,44.7417,48.34,57,100,6.71,RU,1678008818
256,Cairns,-16.9167,145.7667,77.07,97,100,6.91,AU,1678008751
257,Karpathos,35.507,27.2132,60.76,88,100,1.14,GR,1678008588
258,Pisco,-13.7,-76.2167,69.85,83,100,3.44,PE,1678008818
259,Touros,-5.1989,-35.4608,81.32,75,100,12.8,BR,1678008819
260,Luderitz,-26.6481,15.1594,70.02,63,36,12.19,NA,1678008819
261,Grand Gaube,-20.0064,57.6608,86.4,81,100,8.99,MU,1678008819
262,Loikaw,19.6742,97.2094,87.96,19,2,4.03,MM,1678008772
263,Nanortalik,60.1432,-45.2371,32.72,81,79,9.08,GL,1678008819
264,Shelburne,44.0787,-80.2041,31.77,97,100,7.02,CA,1678008819
265,Butembo,0.15,29.2833,82.65,36,79,3.22,CD,1678008819
266,Camacha,33.0833,-16.3333,60.22,82,20,2.3,PT,1678008820
267,Srandakan,-7.9386,110.2506,80.71,81,99,11.56,ID,1678008820
268,Soroti,1.7146,33.6111,95.97,17,75,7.45,UG,1678008820
269,Kulhudhuffushi,6.6221,73.07,80.04,78,84,12.19,MV,1678008820
270,Severo-Yeniseyskiy,60.3725,93.0408,9.82,89,100,7.2,RU,1678008820
271,Wegorzewo,54.2157,21.7372,33.1,49,100,14.52,PL,1678008820
272,Pinawa,50.1489,-95.8811,9.27,100,93,1.95,CA,1678008820
273,Nizwa,22.9333,57.5333,87.73,17,3,11.65,OM,1678008821
274,Semey,50.4111,80.2275,32.22,80,75,13.42,KZ,1678008611
275,Baykit,61.67,96.37,9.21,85,100,7.52,RU,1678008821
276,Saint-Pierre,-21.3393,55.4781,84.18,70,20,5.75,RE,1678008606
277,Awjilah,29.1081,21.2869,68.16,28,0,13.89,LY,1678008821
278,Yaring,6.8662,101.3689,79.36,67,76,14.67,TH,1678008821
279,Montrose,38.4166,-108.2673,31.57,74,4,18.79,US,1678008821
280,Synya,65.3718,58.0387,10.53,86,18,2.26,RU,1678008822
281,Mokhotlong,-29.2894,29.0675,70.05,50,10,11.27,LS,1678008822
282,Maiduguri,11.8464,13.1603,100.81,6,7,19.44,NG,1678008822
283,Sal Rei,16.1833,-22.9167,70.0,88,40,12.66,CV,1678008822
284,Nyurba,63.2842,118.3319,10.44,91,100,8.95,RU,1678008822
285,Turukhansk,65.8167,87.9833,2.57,91,100,10.25,RU,1678008822
286,Kruisfontein,-34.0033,24.7314,73.58,83,99,2.73,ZA,1678008663
287,Soyo,-6.1349,12.3689,84.79,67,94,5.44,AO,1678008822
288,Faya,18.3851,42.4509,73.92,24,0,5.01,SA,1678008823
289,Huarmey,-10.0681,-78.1522,74.08,81,100,4.5,PE,1678008823
290,Lusambo,-4.9667,23.45,94.41,42,85,2.57,CD,1678008722
291,Kabo,7.6994,18.629,103.75,9,68,5.01,CF,1678008823
292,Bowen,-20.0167,148.2333,78.46,77,76,14.0,AU,1678008823
293,Comodoro Rivadavia,-45.8667,-67.5,66.06,52,0,5.75,AR,1678008823
294,Tocopilla,-22.092,-70.1979,71.13,79,68,5.28,CL,1678008823
295,Muros,42.7762,-9.0603,50.43,69,94,6.6,ES,1678008824
296,Namatanai,-3.6667,152.4333,78.73,82,100,11.68,PG,1678008824
297,West Bay,19.3667,-81.4167,75.99,85,7,1.01,KY,1678008824
298,Kyabe,9.4515,18.9449,102.09,5,17,12.91,TD,1678008824
299,Sivas,39.7916,37.0019,47.03,76,75,10.36,TR,1678008634
300,Quatre Cocos,-20.2078,57.7625,86.11,88,100,13.04,MU,1678008824
301,Laguna,38.421,-121.4238,46.69,81,100,13.8,US,1678008824
302,Makakilo City,21.3469,-158.0858,70.68,81,20,3.44,US,1678008824
303,Hvide Sande,56.0045,8.1294,38.08,52,90,23.13,DK,1678008825
304,Komsomolskiy,40.4272,71.7189,65.12,36,72,0.0,UZ,1678008825
305,Sorland,67.667,12.6934,31.86,49,99,21.41,NO,1678008825
306,Kitami,43.8031,143.8908,35.06,88,0,5.19,JP,1678008825
307,Sistranda,63.7256,8.834,31.96,62,100,21.77,NO,1678008825
308,Betsiamites,48.9413,-68.646,19.49,90,98,5.44,CA,1678008825
309,Natchitoches,31.7668,-93.1335,47.25,100,0,0.0,US,1678008825
310,Kirakira,-10.4544,161.9205,79.86,81,100,9.08,SB,1678008825
311,Serenje,-13.2325,30.2352,74.07,77,97,7.25,ZM,1678008826
312,Fuyang,32.9,115.8167,65.89,38,0,5.19,CN,1678008826
313,Jinan,36.6683,116.9972,66.58,17,0,8.37,CN,1678008756
314,Tuatapere,-46.1333,167.6833,46.45,87,4,4.03,NZ,1678008826
315,Nkan,0.3833,9.7833,83.97,66,77,3.24,GA,1678008826
316,La Asuncion,11.0333,-63.8628,74.93,100,86,13.8,VE,1678008826
317,Hun,29.1268,15.9477,64.78,17,0,9.01,LY,1678008826
318,Goderich,43.7501,-81.7165,35.91,100,100,5.75,CA,1678008826
319,Okhansk,57.7186,55.3877,32.07,86,99,7.58,RU,1678008827
320,Pimentel,-6.8367,-79.9342,75.49,69,0,3.44,PE,1678008827
321,Cabedelo,-6.9811,-34.8339,75.87,74,39,10.58,BR,1678008827
322,Bela,25.9333,81.9833,95.59,12,7,17.2,IN,1678008827
323,Nizhneudinsk,54.9076,99.0276,24.55,73,98,4.36,RU,1678008827
324,Tiarei,-17.5333,-149.3333,78.82,84,63,12.33,PF,1678008827
325,Provideniya,64.3833,-173.3,32.59,98,100,15.86,RU,1678008646
326,Petropavlovsk-Kamchatskiy,53.0452,158.6483,9.19,61,0,4.47,RU,1678008828
327,Isla Aguada,18.7833,-91.4667,75.81,87,24,8.28,MX,1678008828
328,Buraydah,26.326,43.975,84.65,13,77,10.56,SA,1678008740
329,Atar,20.5169,-13.0499,71.65,33,0,6.91,MR,1678008828
330,Nome,64.5011,-165.4064,26.67,93,100,21.85,US,1678008643
331,Hutchinson,38.0608,-97.9298,45.73,64,0,8.05,US,1678008828
332,Chernyshevskiy,63.0128,112.4714,8.89,91,100,13.29,RU,1678008828
333,Avera,33.194,-82.5271,49.55,71,0,6.04,US,1678008828
334,Yar-Sale,66.8333,70.8333,-12.19,97,35,4.52,RU,1678008829
335,Ukiah,39.1502,-123.2078,40.03,94,100,9.22,US,1678008829
336,Terra Rica,-22.7094,-52.6169,70.47,95,0,2.17,BR,1678008829
337,Rawson,-43.3002,-65.1023,69.06,36,95,13.22,AR,1678008829
338,Saldanha,-33.0117,17.9442,71.65,70,42,12.35,ZA,1678008829
339,Olafsvik,64.8945,-23.7142,39.51,87,100,7.07,IS,1678008829
340,Hamilton,39.1834,-84.5333,42.78,79,0,0.0,US,1678008829
341,Clarence Town,-32.5833,151.7833,76.91,73,0,8.52,AU,1678008829
342,Fairview,40.8126,-73.999,39.47,68,0,10.36,US,1678008829
343,Aswan,24.0934,32.907,94.78,16,99,8.9,EG,1678008734
344,Truth Or Consequences,33.1284,-107.2528,48.43,29,0,4.61,US,1678008830
345,Katherine,-14.4667,132.2667,91.72,46,75,9.22,AU,1678008830
346,Deniliquin,-35.5333,144.9667,77.81,39,68,18.68,AU,1678008830
347,Totness,5.8833,-56.3167,75.27,88,98,9.13,SR,1678008830
348,Tiznit,29.5833,-9.5,60.96,67,56,4.14,MA,1678008830
349,Leningradskiy,69.3833,178.4167,-8.81,94,100,1.61,RU,1678008830
350,Xining,36.6167,101.7667,50.43,16,84,4.32,CN,1678008831
351,Clyde River,70.4692,-68.5914,3.43,78,100,5.75,CA,1678008831
352,Asau,46.4333,26.4,38.32,70,99,2.17,RO,1678008831
353,Margate,51.3813,1.3862,40.3,74,100,5.01,GB,1678008831
354,Pontes E Lacerda,-15.2261,-59.3353,70.36,91,49,2.06,BR,1678008831
355,Verkh-Usugli,52.7,115.1667,18.91,65,27,6.24,RU,1678008831
356,Jumla,29.2747,82.1838,59.41,31,64,8.37,NP,1678008831
357,Asyut,27.181,31.1837,97.99,6,0,18.75,EG,1678008831
358,Stepnyak,52.8339,70.7803,24.48,78,100,7.4,KZ,1678008832
359,Madaoua,14.073,5.96,97.39,9,0,13.22,NE,1678008832
360,Revelstoke,50.9832,-118.2023,23.02,93,75,2.3,CA,1678008832
361,Vokhtoga,58.8147,41.0461,26.46,90,100,7.92,RU,1678008819
362,Dunda,-8.1167,34.25,80.08,61,65,5.95,TZ,1678008832
363,Vanimo,-2.6741,141.3028,78.73,86,100,8.88,PG,1678008832
364,Markova,48.6758,24.4138,38.71,49,57,7.58,UA,1678008832
365,Bosaso,11.2842,49.1816,80.58,78,0,24.16,SO,1678008833
366,Fort-De-France,14.6089,-61.0733,75.15,83,100,8.05,MQ,1678008833
367,Takoradi,4.8845,-1.7554,84.61,69,25,7.11,GH,1678008833
368,Port-Gentil,-0.7193,8.7815,84.16,84,40,10.36,GA,1678008833
369,Clinton,42.587,-82.9199,39.29,85,20,9.22,US,1678008833
370,Morwell,-38.2333,146.4,73.4,47,100,2.95,AU,1678008833
371,Jasper,37.2001,-94.3502,49.68,71,20,10.36,US,1678008833
372,Orchard Homes,46.8633,-114.0484,30.34,47,20,16.11,US,1678008833
373,Tomatlan,19.9333,-105.25,60.53,89,100,1.99,MX,1678008834
374,Alofi,-19.0595,-169.9187,80.49,89,100,5.75,NU,1678008834
375,Ahipara,-35.1667,173.1667,63.36,81,53,10.76,NZ,1678008834
376,Baghdad,33.3406,44.4009,80.51,29,31,12.66,IQ,1678008578
377,Alaca,40.1683,34.8425,53.4,58,100,11.95,TR,1678008816
378,Acapulco,16.8634,-99.8901,75.02,83,40,4.61,MX,1678008834
379,Lakatoro,-16.0999,167.4164,79.88,81,51,5.82,VU,1678008834
380,Mumford,5.2618,-0.759,84.43,68,36,8.52,GH,1678008835
381,Luganville,-15.5333,167.1667,78.33,88,92,4.74,VU,1678008835
382,Salalah,17.0151,54.0924,86.09,35,0,6.91,OM,1678008835
383,Vallenar,-28.5708,-70.7581,66.63,75,97,3.71,CL,1678008835
384,Simoes,-7.5989,-40.8178,74.98,68,11,7.14,BR,1678008835
385,Varzea Da Palma,-17.5981,-44.7308,69.24,73,100,1.5,BR,1678008835
386,Toppenish,46.3774,-120.3087,32.22,76,100,3.85,US,1678008835
387,Rosario,-32.9468,-60.6393,75.94,83,0,4.61,AR,1678008544
388,Baita De Sub Codru,47.5333,23.15,32.99,57,99,9.13,RO,1678008836
389,Ambilobe,-13.2,49.05,83.08,74,100,6.98,MG,1678008836
390,Balabac,7.9868,117.0645,79.36,76,54,9.37,PH,1678008836
391,Bandar-E Lengeh,26.5579,54.8807,78.91,65,0,11.5,IR,1678008646
392,Wageningen,51.9667,5.6667,42.12,88,100,5.75,NL,1678008836
393,Eyrarbakki,63.863,-21.1481,38.21,83,59,7.36,IS,1678008836
394,Antalaha,-14.9003,50.2788,85.37,67,92,8.43,MG,1678008837
395,Meulaboh,4.1363,96.1285,82.42,71,8,5.39,ID,1678008837
396,Bhuj,23.2667,69.6667,95.43,17,0,4.54,IN,1678008576
397,Road Town,18.4167,-64.6167,75.29,74,0,17.34,VG,1678008837
398,Bellevue,47.6104,-122.2007,38.05,87,0,3.44,US,1678008837
399,Dikson,73.5069,80.5464,-20.65,99,84,4.47,RU,1678008837
400,Bilibino,68.0546,166.4372,-18.4,100,98,1.52,RU,1678008837
401,Durango,24.8333,-104.8333,44.74,30,0,6.46,MX,1678008837
402,Beira,-19.8436,34.8389,86.09,62,20,6.91,MZ,1678008838
403,Alta Floresta,-9.8756,-56.0861,70.16,97,23,1.28,BR,1678008838
404,Goksun,38.021,36.4973,51.66,63,100,8.68,TR,1678008577
405,Sokoni,-6.4333,39.55,83.12,68,9,16.82,TZ,1678008838
406,Ixtapa,20.7,-105.2,60.35,74,100,2.51,MX,1678008838
407,Honiara,-9.4333,159.95,77.85,84,61,7.09,SB,1678008838
408,Kyshtovka,56.555,76.6271,24.82,94,100,11.3,RU,1678008838
409,Neufchateau,48.35,5.7,37.94,69,100,4.27,FR,1678008838
410,Anahuac,27.2333,-100.15,60.08,79,2,12.26,MX,1678008839
411,Plettenberg Bay,-34.0527,23.3716,70.99,84,65,7.34,ZA,1678008839
412,Novoagansk,61.9449,76.6625,16.61,91,100,6.98,RU,1678008839
413,Sakakah,29.9697,40.2064,85.57,17,1,6.31,SA,1678008839
414,Caravelas,-17.7125,-39.2481,76.23,81,54,1.45,BR,1678008839
415,Marquette,46.5333,-87.6335,28.17,86,66,4.0,US,1678008839
416,Darhan,49.4867,105.9228,29.26,93,49,5.7,MN,1678008839
417,Krasnoselkup,65.7,82.4667,-1.8,93,99,5.75,RU,1678008839
418,Bac Lieu,9.285,105.7244,79.3,59,97,19.73,VN,1678008840
419,Lakes Entrance,-37.8811,147.981,72.45,64,87,11.32,AU,1678008840
420,Tashtagol,52.7657,87.8894,28.89,83,100,3.87,RU,1678008840
421,Douentza,14.9951,-2.9517,91.51,8,4,5.41,ML,1678008840
422,Kodinsk,58.6881,99.1844,15.17,84,100,8.5,RU,1678008543
423,Lishui,28.4604,119.9103,60.6,42,1,0.72,CN,1678008840
424,Marsa Matruh,31.3525,27.2453,65.77,71,7,24.58,EG,1678008840
425,Voi,-3.3945,38.563,89.92,30,37,12.68,KE,1678008841
426,Roma,43.2128,-75.4557,32.83,95,100,0.0,US,1678008841
427,Santo Angelo,-28.2992,-54.2631,65.19,96,0,3.09,BR,1678008691
428,Corn Island,12.1694,-83.0418,79.32,80,0,18.21,NI,1678008841
429,Yanam,16.7333,82.2167,91.8,25,1,8.37,IN,1678008841
430,Hobyo,5.3505,48.5268,84.27,61,14,21.79,SO,1678008841
431,Dessau,51.8386,12.2456,40.37,78,100,5.99,DE,1678008841
432,Menongue,-14.6585,17.691,82.94,49,96,2.55,AO,1678008841
433,Jiuquan,39.7432,98.5174,53.74,17,9,0.43,CN,1678008842
434,Sandi,27.3,79.95,93.34,15,7,14.81,IN,1678008842
435,Klaksvik,62.2266,-6.589,34.72,74,99,5.41,FO,1678008842
436,Mnogovershinnyy,53.9353,139.9242,21.13,89,46,5.77,RU,1678008842
437,Bandarbeyla,9.4942,50.8122,80.96,65,11,15.79,SO,1678008842
438,Sinnamary,5.3833,-52.95,76.64,88,95,12.12,GF,1678008842
439,Porto Novo,6.4965,2.6036,85.82,62,83,7.85,BJ,1678008842
440,Souillac,-20.5167,57.5167,86.38,62,75,11.5,MU,1678008843
441,Cortez,37.3489,-108.5859,34.56,44,0,3.44,US,1678008843
442,Phayakkhaphum Phisai,15.5163,103.1937,92.55,25,0,10.0,TH,1678008843
443,Kutum,14.2,24.6667,84.16,7,0,15.03,SD,1678008843
444,Katsuura,35.1333,140.3,52.03,75,100,12.86,JP,1678008843
445,Lubao,14.9167,120.55,85.71,60,57,7.2,PH,1678008843
446,Haines Junction,60.7522,-137.5108,-7.65,64,57,3.44,CA,1678008843
447,De Aar,-30.6497,24.0123,84.92,31,2,26.37,ZA,1678008843
448,Coruripe,-10.1256,-36.1756,81.43,68,4,10.02,BR,1678008844
449,Yulara,-25.2406,130.9889,86.32,15,1,1.3,AU,1678008844
450,Topolobampo,25.6,-109.05,53.98,62,0,3.98,MX,1678008844
451,Santa Maria Del Oro,25.9333,-105.3667,44.55,26,0,4.36,MX,1678008844
452,Jaciara,-15.9653,-54.9683,70.25,91,62,1.68,BR,1678008844
453,Kota Kinabalu,5.9749,116.0724,84.18,79,20,6.91,MY,1678008648
454,Hamina,60.5697,27.1979,31.32,87,76,3.6,FI,1678008844
455,Fukuma,33.7667,130.4667,53.6,54,0,10.42,JP,1678008845
456,Surgut,61.25,73.4167,12.38,85,75,8.95,RU,1678008712
457,Guerrero Negro,27.9769,-114.0611,54.77,81,26,11.81,MX,1678008845
458,Xuddur,4.1213,43.8894,93.81,19,47,21.63,SO,1678008845
459,Acarau,-2.8856,-40.12,77.76,89,90,10.54,BR,1678008845
460,Zeya,53.75,127.2667,18.36,90,100,5.21,RU,1678008845
461,Tabou,4.423,-7.3528,84.02,71,34,1.54,CI,1678008845
462,Cache Creek,50.8101,-121.3246,21.04,97,100,1.79,CA,1678008717
463,Delta Del Tigre,-34.7633,-56.3853,69.89,78,93,4.74,UY,1678008700
464,Ulkan,57.243,107.3223,17.53,83,100,10.83,RU,1678008846
465,Mattru,7.6244,-11.8332,85.14,65,47,3.02,SL,1678008846
466,Isangel,-19.55,169.2667,78.49,87,21,10.22,VU,1678008846
467,Kalamazoo,42.2506,-85.55,37.69,95,88,7.14,US,1678008846
468,Atasu,48.6814,71.6433,33.17,100,100,12.75,KZ,1678008846
469,Ucluelet,48.9329,-125.5528,40.08,90,98,1.01,CA,1678008846
470,Sao Joao Batista,-27.2761,-48.8494,74.03,100,92,2.73,BR,1678008846
471,Mikuni,36.2171,136.1519,46.31,71,49,9.28,JP,1678008846
472,Develi,38.3906,35.4922,52.95,56,100,13.18,TR,1678008847
473,Roebourne,-20.7833,117.1333,87.51,65,32,21.9,AU,1678008847
474,Sisimiut,66.9395,-53.6735,30.29,74,44,14.63,GL,1678008847
475,Godda,24.8333,87.2167,96.24,11,0,17.9,IN,1678008847
476,Timon,-5.0942,-42.8367,74.98,88,20,0.0,BR,1678008847
477,Alamosa,37.4695,-105.87,35.58,35,0,26.46,US,1678008847
478,Alice Springs,-23.7,133.8833,96.35,40,3,9.22,AU,1678008654
479,Aasiaat,68.7098,-52.8699,9.14,96,53,8.72,GL,1678008847
480,Dwarka,22.2394,68.9678,84.61,43,0,11.83,IN,1678008848
481,Listvyanskiy,54.4399,83.4984,24.26,87,100,10.0,RU,1678008848
482,Xacmaz,41.4635,48.806,46.63,80,96,5.88,AZ,1678008674
483,Port Hedland,-20.3167,118.5667,91.45,62,10,20.71,AU,1678008848
484,Bago,17.3367,96.4797,98.42,17,0,6.53,MM,1678008848
485,Kendari,-3.945,122.4989,78.37,86,100,2.21,ID,1678008848
486,Vostok,46.4856,135.8833,22.62,96,6,6.26,RU,1678008848
487,Kungurtug,50.5994,97.5228,27.57,78,73,1.66,RU,1678008849
488,San Policarpo,12.1791,125.5072,77.2,86,75,12.01,PH,1678008849
489,Kaeo,-35.1,173.7833,59.32,86,12,6.26,NZ,1678008849
490,Kavaratti,10.5669,72.642,82.6,59,0,3.29,IN,1678008849
491,Palmer,42.1584,-72.3287,35.2,87,100,3.44,US,1678008849
492,Iwanai,42.9744,140.5089,33.98,81,6,6.64,JP,1678008849
493,Cody,44.5263,-109.0565,19.9,72,0,4.61,US,1678008849
494,Inhambane,-23.865,35.3833,87.78,66,40,14.5,MZ,1678008850
495,Luanda,-8.8368,13.2343,84.2,65,75,4.61,AO,1678008616
496,Alappuzha,9.49,76.3264,89.01,63,98,14.16,IN,1678008850
497,San Ignacio,17.1561,-89.0714,71.74,94,0,0.0,BZ,1678008850
498,Jizan,17.3333,42.6667,86.94,37,0,14.18,SA,1678008850
499,Fort Myers Beach,26.452,-81.9481,73.0,94,0,0.0,US,1678008850
500,Svetlogorsk,52.6333,29.7333,33.15,60,100,16.42,BY,1678008850
501,Zhangye,38.9342,100.4517,53.01,19,9,9.48,CN,1678008681
502,Katobu,-4.9408,122.5276,78.13,85,74,4.92,ID,1678008851
503,Ewa Beach,21.3156,-158.0072,72.09,82,20,3.44,US,1678008851
504,Jinxiang,27.4327,120.6062,56.41,60,0,6.2,CN,1678008851
505,Kokoda,-8.8785,147.7407,74.57,93,100,3.51,PG,1678008851
506,Ihosy,-22.4,46.1167,69.26,96,100,4.79,MG,1678008851
507,Conakry,9.538,-13.6773,80.67,74,20,2.3,GN,1678008851
508,Qandala,11.472,49.8728,82.15,62,0,15.19,SO,1678008852
509,Zhanaozen,43.3,52.8,51.69,46,92,5.82,KZ,1678008852
510,Peniche,39.3558,-9.3811,53.56,93,100,6.91,PT,1678008852
511,Antofagasta,-23.65,-70.4,67.28,87,97,2.51,CL,1678008852
512,Lalmohan,22.3384,90.7419,85.35,43,0,9.78,BD,1678008852
513,Boguchany,58.3814,97.4531,16.16,82,100,7.63,RU,1678008852
514,Arman,59.7,150.1667,-4.38,89,100,7.72,RU,1678008853
515,Hambantota,6.1241,81.1185,86.34,74,40,9.22,LK,1678008853
516,Qasigiannguit,68.8193,-51.1922,21.45,80,12,6.58,GL,1678008853
517,Oboyan,51.2098,36.2792,30.7,78,100,19.62,RU,1678008853
518,Coquimbo,-29.9533,-71.3436,62.33,94,100,3.44,CL,1678008853
519,Vila,42.0304,-8.1588,37.71,84,100,4.05,PT,1678008853
520,Dzhebariki-Khaya,62.2167,135.8,3.72,98,100,2.26,RU,1678008854
521,Imst,47.2684,10.6698,26.38,69,55,2.48,AT,1678008854
522,Annamalainagar,11.4,79.7333,83.52,55,100,12.71,IN,1678008854
523,Batemans Bay,-35.7167,150.1833,74.1,78,29,6.06,AU,1678008854
524,Namwala,-15.7504,26.4384,81.12,64,98,4.41,ZM,1678008854
525,Sommerda,51.15,11.1,39.97,76,100,14.85,DE,1678008854
526,Bilma,18.6853,12.9164,95.14,8,66,7.65,NE,1678008854
527,Tiksi,71.6872,128.8694,-0.9,100,100,2.89,RU,1678008855
528,Vieux-Habitants,16.0589,-61.7659,74.77,73,33,10.98,GP,1678008855
529,Flin Flon,54.7682,-101.865,-13.04,99,17,5.82,CA,1678008855
530,Kroya,-7.6331,109.2461,80.67,82,82,12.41,ID,1678008855
531,Pacific Grove,36.6177,-121.9166,49.78,77,75,9.22,US,1678008855
532,Lahij,13.1667,44.5833,86.9,27,1,18.7,YE,1678008855
533,Coos Bay,43.3665,-124.2179,36.99,99,100,6.91,US,1678008855
534,Maraa,-1.8333,-65.3667,72.91,95,99,2.75,BR,1678008856
535,Guarapari,-20.6667,-40.4975,73.89,80,100,9.46,BR,1678008856
536,Puerto Del Rosario,28.5004,-13.8627,64.15,82,20,4.61,ES,1678008707
537,Praia,14.9215,-23.5087,72.14,56,40,14.97,CV,1678008609
538,Terrace,54.5163,-128.6035,30.11,59,20,12.66,CA,1678008856
539,Mayumba,-3.432,10.6554,83.61,73,92,6.67,GA,1678008856
540,Yushan,31.3776,120.9543,62.49,46,35,8.57,CN,1678008856
541,Tandil,-37.3217,-59.1332,54.27,97,2,4.92,AR,1678008856
542,Pekin,39.9075,116.3972,51.69,18,11,0.36,CN,1678008722
543,Taoudenni,22.6783,-3.9836,82.29,14,79,12.08,ML,1678008857
544,Gull Lake,50.1001,-108.4847,6.4,99,99,5.91,CA,1678008857
545,Camacupa,-12.0167,17.4833,72.34,76,99,2.26,AO,1678008857
546,Da Nang,16.0678,108.2208,76.98,65,20,10.36,VN,1678008666
547,San Carlos De Bariloche,-41.1456,-71.3082,56.95,54,20,12.66,AR,1678008673
548,Villa Carlos Paz,-31.4241,-64.4978,69.39,33,0,4.79,AR,1678008857
549,Nakamura,32.9833,132.9333,47.26,70,9,2.68,JP,1678008857
550,Mecca,21.4267,39.8261,91.6,32,45,6.71,SA,1678008857
551,Rio Cuarto,-33.1307,-64.3499,71.37,73,0,4.61,AR,1678008611
552,Ayan,56.45,138.1667,3.38,96,100,4.12,RU,1678008858
553,Cockburn Town,21.4612,-71.1419,77.11,75,74,15.73,TC,1678008858
554,Russell,32.3502,-85.1999,54.68,93,0,0.0,US,1678008858
555,Orange Cove,36.6244,-119.3137,47.57,100,20,8.05,US,1678008858
556,Valdivia,-39.8142,-73.2459,39.29,78,0,1.83,CL,1678008695
557,Changji,44.0167,87.3167,38.19,60,47,4.47,CN,1678008858
